{
"type": "FeatureCollection",
"name": "Puntos_Infra_barrio",
"crs": { "type": "name", "properties": { "name": "urn:ogc:def:crs:OGC:1.3:CRS84" } },
"features": [
{ "type": "Feature", "properties": { "fid": 1, "Name": "Parque Valle del Mezquite " }, "geometry": { "type": "Point", "coordinates": [ -110.295107770205703, 24.082263099458789 ] } },
{ "type": "Feature", "properties": { "fid": 3, "Name": "Plaza 8 de octubre" }, "geometry": { "type": "Point", "coordinates": [ -110.311003493977182, 24.114468051593601 ] } },
{ "type": "Feature", "properties": { "fid": 4, "Name": "Camellón Margarita Maza de Juarez" }, "geometry": { "type": "Point", "coordinates": [ -110.306575272774452, 24.11670268135504 ] } },
{ "type": "Feature", "properties": { "fid": 5, "Name": "Andador peatonal 8 de octubre" }, "geometry": { "type": "Point", "coordinates": [ -110.307576200840387, 24.117769194214681 ] } },
{ "type": "Feature", "properties": { "fid": 7, "Name": "Cancha Los Girasoles" }, "geometry": { "type": "Point", "coordinates": [ -110.334257618706232, 24.1386834795792 ] } },
{ "type": "Feature", "properties": { "fid": 8, "Name": "Parque Solidaridad" }, "geometry": { "type": "Point", "coordinates": [ -110.33174797033405, 24.13920960436608 ] } },
{ "type": "Feature", "properties": { "fid": 10, "Name": "Teatro de la ciudad" }, "geometry": { "type": "Point", "coordinates": [ -110.317226986552626, 24.147898238289475 ] } },
{ "type": "Feature", "properties": { "fid": 12, "Name": "Parque BellaVista" }, "geometry": { "type": "Point", "coordinates": [ -110.304711200101195, 24.128736774230156 ] } },
{ "type": "Feature", "properties": { "fid": 14, "Name": "Parque ayuntamiento" }, "geometry": { "type": "Point", "coordinates": [ -110.296950392147167, 24.048273559620629 ] } },
{ "type": "Feature", "properties": { "fid": 16, "Name": "Parque Camino Real" }, "geometry": { "type": "Point", "coordinates": [ -110.297727484707323, 24.055463379551409 ] } },
{ "type": "Feature", "properties": { "fid": 17, "Name": "Área pública" }, "geometry": { "type": "Point", "coordinates": [ -110.297784507805261, 24.056298910127705 ] } },
{ "type": "Feature", "properties": { "fid": 19, "Name": "Parque centenario" }, "geometry": { "type": "Point", "coordinates": [ -110.413483034240386, 24.102420194452311 ] } },
{ "type": "Feature", "properties": { "fid": 21, "Name": "Parque Diana Laura" }, "geometry": { "type": "Point", "coordinates": [ -110.313436201000528, 24.083807910470423 ] } },
{ "type": "Feature", "properties": { "fid": 23, "Name": "Parque el calandrio" }, "geometry": { "type": "Point", "coordinates": [ -110.323326736664853, 24.099119435036865 ] } },
{ "type": "Feature", "properties": { "fid": 25, "Name": "Estadio" }, "geometry": { "type": "Point", "coordinates": [ -110.303383149232076, 24.157107201758627 ] } },
{ "type": "Feature", "properties": { "fid": 27, "Name": "Parque Fidepez" }, "geometry": { "type": "Point", "coordinates": [ -110.339743374809274, 24.124808521474158 ] } },
{ "type": "Feature", "properties": { "fid": 29, "Name": "Parque Indeco III" }, "geometry": { "type": "Point", "coordinates": [ -110.326352699410435, 24.115647516238102 ] } },
{ "type": "Feature", "properties": { "fid": 31, "Name": "Jardín Velasco" }, "geometry": { "type": "Point", "coordinates": [ -110.313464475588461, 24.162050394943279 ] } },
{ "type": "Feature", "properties": { "fid": 33, "Name": "Parque La Fuente" }, "geometry": { "type": "Point", "coordinates": [ -110.299461841601271, 24.0659211333532 ] } },
{ "type": "Feature", "properties": { "fid": 35, "Name": "Parque Las garzas 2" }, "geometry": { "type": "Point", "coordinates": [ -110.322333340831619, 24.122513018171322 ] } },
{ "type": "Feature", "properties": { "fid": 37, "Name": "AV_Las Grullas" }, "geometry": { "type": "Point", "coordinates": [ -110.322311494731778, 24.127874325258702 ] } },
{ "type": "Feature", "properties": { "fid": 39, "Name": "Parque General Vicente Guerrero" }, "geometry": { "type": "Point", "coordinates": [ -110.295926207095178, 24.140677543839654 ] } },
{ "type": "Feature", "properties": { "fid": 40, "Name": "Polígono sin título" }, "geometry": { "type": "Point", "coordinates": [ -110.296658505929699, 24.140897298475572 ] } },
{ "type": "Feature", "properties": { "fid": 41, "Name": "Normal Urbana" }, "geometry": { "type": "Point", "coordinates": [ -110.306044329361285, 24.143938825509004 ] } },
{ "type": "Feature", "properties": { "fid": 43, "Name": "Gob Estado" }, "geometry": { "type": "Point", "coordinates": [ -110.306799391236197, 24.148831273229035 ] } },
{ "type": "Feature", "properties": { "fid": 44, "Name": "Parque Revolución" }, "geometry": { "type": "Point", "coordinates": [ -110.308309061353086, 24.150630418801164 ] } },
{ "type": "Feature", "properties": { "fid": 47, "Name": "Parque del Cereso" }, "geometry": { "type": "Point", "coordinates": [ -110.320509421523965, 24.129884108154663 ] } },
{ "type": "Feature", "properties": { "fid": 48, "Name": "Parque Arboledas" }, "geometry": { "type": "Point", "coordinates": [ -110.325438776605125, 24.135396110874471 ] } },
{ "type": "Feature", "properties": { "fid": 50, "Name": "Parque Camino Real 3" }, "geometry": { "type": "Point", "coordinates": [ -110.285694204330312, 24.056905345717279 ] } },
{ "type": "Feature", "properties": { "fid": 52, "Name": "Centro comunitario" }, "geometry": { "type": "Point", "coordinates": [ -110.299154373321613, 24.128014062407225 ] } },
{ "type": "Feature", "properties": { "fid": 54, "Name": "Parque Indeco" }, "geometry": { "type": "Point", "coordinates": [ -110.32393094486261, 24.117372575079632 ] } },
{ "type": "Feature", "properties": { "fid": 55, "Name": "Área pública Indeco II" }, "geometry": { "type": "Point", "coordinates": [ -110.323761891694019, 24.116351729043505 ] } },
{ "type": "Feature", "properties": { "fid": 57, "Name": "Parque Jerico" }, "geometry": { "type": "Point", "coordinates": [ -110.307844816197317, 24.068760554555976 ] } },
{ "type": "Feature", "properties": { "fid": 59, "Name": "Parque Los Mangos" }, "geometry": { "type": "Point", "coordinates": [ -110.321783654843671, 24.119867760114108 ] } },
{ "type": "Feature", "properties": { "fid": 61, "Name": "Parque Posada" }, "geometry": { "type": "Point", "coordinates": [ -110.340057310921807, 24.142816020910676 ] } },
{ "type": "Feature", "properties": { "fid": 63, "Name": "Parque Pueblo nuevo" }, "geometry": { "type": "Point", "coordinates": [ -110.324365901519229, 24.141949239639612 ] } },
{ "type": "Feature", "properties": { "fid": 65, "Name": "Parque Río Blanco" }, "geometry": { "type": "Point", "coordinates": [ -110.320559771897877, 24.122997004839071 ] } },
{ "type": "Feature", "properties": { "fid": 66, "Name": "Parque Indeco" }, "geometry": { "type": "Point", "coordinates": [ -110.319784013633623, 24.123892255180664 ] } },
{ "type": "Feature", "properties": { "fid": 68, "Name": "Parque Camino Real 2" }, "geometry": { "type": "Point", "coordinates": [ -110.288529733562427, 24.058754943385953 ] } },
{ "type": "Feature", "properties": { "fid": 70, "Name": "Parque Zucasa" }, "geometry": { "type": "Point", "coordinates": [ -110.319096472996961, 24.142982485137939 ] } },
{ "type": "Feature", "properties": { "fid": 72, "Name": "Parque Villas del Encanto" }, "geometry": { "type": "Point", "coordinates": [ -110.33401003203376, 24.102980659266201 ] } },
{ "type": "Feature", "properties": { "fid": 73, "Name": "Parque Villas Taro" }, "geometry": { "type": "Point", "coordinates": [ -110.330951836918771, 24.103247490710125 ] } },
{ "type": "Feature", "properties": { "fid": 74, "Name": "Parque Villa Naomi" }, "geometry": { "type": "Point", "coordinates": [ -110.33263068725941, 24.104488810596202 ] } },
{ "type": "Feature", "properties": { "fid": 75, "Name": "Parque Villa Navío" }, "geometry": { "type": "Point", "coordinates": [ -110.329103012888126, 24.102504160090923 ] } },
{ "type": "Feature", "properties": { "fid": 76, "Name": "Parque Villa Sauce" }, "geometry": { "type": "Point", "coordinates": [ -110.327379651966751, 24.101740064822192 ] } },
{ "type": "Feature", "properties": { "fid": 78, "Name": "Parque Infonavit" }, "geometry": { "type": "Point", "coordinates": [ -110.31557636403484, 24.132811711591831 ] } }
]
}
